$GPGGA,235952.800,,,,,0,00,,,M,,M,,*7A
$GPGSA,A,1,,,,,,,,,,,,,,,*1E
$GPGSV,1,1,04,05,,,43,20,,,39,13,,,38,28,,,40*70
$GPRMC,235952.800,V,,,,,0.00,0.00,050180,,,N*43
$GPVTG,0.00,T,,M,0.00,N,0.00,K,N*32
$GPGGA,235953.800,,,,,0,00,,,M,,M,,*7B
$GPGSA,A,1,,,,,,,,,,,,,,,*1E
$GPRMC,235953.800,V,,,,,0.00,0.00,050180,,,N*42
$GPVTG,0.00,T,,M,0.00,N,0.00,K,N*32

Time: 23:59:53.796
Date: 5/1/2080
Fix: 0 quality: 0
$GPGGA,235954.412,,,,,0,00,,,M,,M,,*73
$GPGSA,A,1,,,,,,,,,,,,,,,*1E
$GPRMC,235954.412,V,,,,,0.00,0.00,050180,,,N*4A
$GPVTG,0.00,T,,M,0.00,N,0.00,K,N*32
$GPGGA,235955.412,,,,,0,00,,,M,,M,,*72
$GPGSA,A,1,,,,,,,,,,,,,,,*1E
$GPRMC,235955.412,V,,,,,0.00,0.00,050180,,,N*4B
$GPVTG,0.00,T,,M,0.00,N,0.00,K,N*32

Time: 23:59:55.406
Date: 5/1/2080
Fix: 0 quality: 0
$GPGGA,143503.094,,,,,0,00,,,M,,M,,*75
$GPGSA,A,1,,,,,,,,,,,,,,,*1E
$GPRMC,143503.094,V,,,,,0.00,0.00,120180,,,N*4A
$GPVTG,0.00,T,,M,0.00,N,0.00,K,N*32
$GPGGA,143504.094,,,,,0,00,,,M,,M,,*72
$GPGSA,A,1,,,,,,,,,,,,,,,*1E
$GPGSV,2,1,05,05,,,43,20,,,39,13,,,38,21,,,30*7C
$GPGSV,2,2,05,28,,,39*7C
$GPRMC,143504.094,V,,,,,0.00,0.00,120180,,,N*4D
$GPVTG,0.00,T,,M,0.00,N,0.00,K,N*32

Time: 14:35:4.93
Date: 12/1/2080
Fix: 0 quality: 0
$GPGGA,143505.094,,,,,0,00,,,M,,M,,*73
$GPGSA,A,1,,,,,,,,,,,,,,,*1E
$GPRMC,143505.094,V,,,,,0.00,0.00,120180,,,N*4C
$GPVTG,0.00,T,,M,0.00,N,0.00,K,N*32
$GPGGA,143506.094,,,,,0,00,,,M,,M,,*70
$GPGSA,A,1,,,,,,,,,,,,,,,*1E
$GPRMC,143506.094,V,,,,,0.00,0.00,120180,,,N*4F
$GPVTG,0.00,T,,M,0.00,N,0.00,K,N*32

Time: 14:35:6.93
Date: 12/1/2080
Fix: 0 quality: 0
$GPGGA,143507.094,,,,,0,00,,,M,,M,,*71
$GPGSA,A,1,,,,,,,,,,,,,,,*1E
$GPRMC,143507.094,V,,,,,0.00,0.00,120180,,,N*4E
$GPVTG,0.00,T,,M,0.00,N,0.00,K,N*32
$GPGGA,143508.094,,,,,0,00,,,M,,M,,*7E
$GPGSA,A,1,,,,,,,,,,,,,,,*1E
$GPRMC,143508.094,V,,,,,0.00,0.00,120180,,,N*41
$GPVTG,0.00,T,,M,0.00,N,0.00,K,N*32

Time: 14:35:8.93
Date: 12/1/2080
Fix: 0 quality: 0
$GPGGA,143509.094,,,,,0,00,,,M,,M,,*7F
$GPGSA,A,1,,,,,,,,,,,,,,,*1E
$GPGSV,2,1,06,05,,,43,20,,,39,13,,,39,21,,,32*7C
$GPGSV,2,2,06,28,,,40,15,,,37*71
$GPRMC,143509.094,V,,,,,0.00,0.00,120180,,,N*40
$GPVTG,0.00,T,,M,0.00,N,0.00,K,N*32
$GPGGA,143510.094,,,,,0,00,,,M,,M,,*77
$GPGSA,A,1,,,,,,,,,,,,,,,*1E
$GPRMC,143510.094,V,,,,,0.00,0.00,120180,,,N*48
$GPVTG,0.00,T,,M,0.00,N,0.00,K,N*32

Time: 14:35:10.93
Date: 12/1/2080
Fix: 0 quality: 0
$GPGGA,143511.094,,,,,0,00,,,M,,M,,*76
$GPGSA,A,1,,,,,,,,,,,,,,,*1E
$GPRMC,143511.094,V,,,,,0.00,0.00,120180,,,N*49
$GPVTG,0.00,T,,M,0.00,N,0.00,K,N*32
$GPGGA,143512.094,,,,,0,00,,,M,,M,,*75
$GPGSA,A,1,,,,,,,,,,,,,,,*1E
$GPRMC,143512.094,V,,,,,0.00,0.00,120180,,,N*4A
$GPVTG,0.00,T,,M,0.00,N,0.00,K,N*32

Time: 14:35:12.93
Date: 12/1/2080
Fix: 0 quality: 0
$GPGGA,143513.094,,,,,0,00,,,M,,M,,*74
$GPGSA,A,1,,,,,,,,,,,,,,,*1E
$GPRMC,143513.094,V,,,,,0.00,0.00,120180,,,N*4B
$GPVTG,0.00,T,,M,0.00,N,0.00,K,N*32
$GPGGA,143513.304,,,,,0,00,,,M,,M,,*7E
$GPGSA,A,1,,,,,,,,,,,,,,,*1E
$GPGSV,2,1,06,05,,,42,20,,,39,13,,,39,21,,,32*7D
$GPGSV,2,2,06,28,,,40,15,,,37*71
$GPRMC,143513.304,V,,,,,0.00,0.00,120180,,,N*41
$GPVTG,0.00,T,,M,0.00,N,0.00,K,N*32
$GPGGA,143514.304,,,,,0,00,,,M,,M,,*79
$GPGSA,A,1,,,,,,,,,,,,,,,*1E
$GPRMC,143514.304,V,,,,,0.00,0.00,120180,,,N*46
$GPVTG,0.00,T,,M,0.00,N,0.00,K,N*32

Time: 14:35:14.296
Date: 12/1/2080
Fix: 0 quality: 0
$GPGGA,143515.304,,,,,0,00,,,M,,M,,*78
$GPGSA,A,1,,,,,,,,,,,,,,,*1E
$GPRMC,143515.304,V,,,,,0.00,0.00,120180,,,N*47
$GPVTG,0.00,T,,M,0.00,N,0.00,K,N*32
$GPGGA,143516.304,,,,,0,00,,,M,,M,,*7B
$GPGSA,A,1,,,,,,,,,,,,,,,*1E
$GPRMC,143516.304,V,,,,,0.00,0.00,120180,,,N*44
$GPVTG,0.00,T,,M,0.00,N,0.00,K,N*32

Time: 14:35:16.296
Date: 12/1/2080
Fix: 0 quality: 0
$GPGGA,143517.304,,,,,0,00,,,M,,M,,*7A
$GPGSA,A,1,,,,,,,,,,,,,,,*1E
$GPRMC,143517.304,V,,,,,0.00,0.00,120180,,,N*45
$GPVTG,0.00,T,,M,0.00,N,0.00,K,N*32
$GPGGA,143518.304,,,,,0,00,,,M,,M,,*75
$GPGSA,A,1,,,,,,,,,,,,,,,*1E
$GPGSV,2,1,06,05,,,42,20,,,39,13,,,39,21,,,32*7D
$GPGSV,2,2,06,28,,,40,15,,,37*71
$GPRMC,143518.304,V,,,,,0.00,0.00,120180,,,N*4A
$GPVTG,0.00,T,,M,0.00,N,0.00,K,N*32

Time: 14:35:18.296
Date: 12/1/2080
Fix: 0 quality: 0
$GPGGA,143519.096,,,,,0,00,,,M,,M,,*7C
$GPGSA,A,1,,,,,,,,,,,,,,,*1E
$GPRMC,143519.096,V,,,,,0.00,0.00,120180,,,N*43
$GPVTG,0.00,T,,M,0.00,N,0.00,K,N*32
$GPGGA,143519.315,,,,,0,00,,,M,,M,,*74
$GPGSA,A,1,,,,,,,,,,,,,,,*1E
$GPRMC,143519.315,V,,,,,0.00,0.00,120180,,,N*4B
$GPVTG,0.00,T,,M,0.00,N,0.00,K,N*32
$GPGGA,143520.315,,,,,0,00,,,M,,M,,*7E
$GPGSA,A,1,,,,,,,,,,,,,,,*1E
$GPRMC,143520.315,V,,,,,0.00,0.00,120180,,,N*41
$GPVTG,0.00,T,,M,0.00,N,0.00,K,N*32

Time: 14:35:20.312
Date: 12/1/2080
Fix: 0 quality: 0
$GPGGA,143521.315,,,,,0,00,,,M,,M,,*7F
$GPGSA,A,1,,,,,,,,,,,,,,,*1E
$GPRMC,143521.315,V,,,,,0.00,0.00,120180,,,N*40
$GPVTG,0.00,T,,M,0.00,N,0.00,K,N*32
$GPGGA,143522.315,,,,,0,00,,,M,,M,,*7C
$GPGSA,A,1,,,,,,,,,,,,,,,*1E
$GPGSV,2,1,06,05,,,42,20,,,39,13,,,39,21,,,32*7D
$GPGSV,2,2,06,28,,,40,15,,,37*71
$GPRMC,143522.315,V,,,,,0.00,0.00,120180,,,N*43
$GPVTG,0.00,T,,M,0.00,N,0.00,K,N*32

Time: 14:35:22.312
Date: 12/1/2080
Fix: 0 quality: 0
$GPGGA,143523.315,,,,,0,00,,,M,,M,,*7D
$GPGSA,A,1,,,,,,,,,,,,,,,*1E
$GPRMC,143523.315,V,,,,,0.00,0.00,120180,,,N*42
$GPVTG,0.00,T,,M,0.00,N,0.00,K,N*32
$GPGGA,143524.315,,,,,0,00,,,M,,M,,*7A
$GPGSA,A,1,,,,,,,,,,,,,,,*1E
$GPRMC,143524.315,V,,,,,0.00,0.00,120180,,,N*45
$GPVTG,0.00,T,,M,0.00,N,0.00,K,N*32

Time: 14:35:24.312
Date: 12/1/2080
Fix: 0 quality: 0
$GPGGA,143525.090,,,,,0,04,,,M,,M,,*71
$GPGSA,A,1,,,,,,,,,,,,,,,*1E
$GPRMC,143525.090,V,,,,,0.35,223.00,060216,,,N*46
$GPVTG,223.00,T,,M,0.35,N,0.64,K,N*35
$GPGGA,143525.310,3630.4362,N,00616.6368,W,1,04,1.93,24.3,M,48.6,M,,*47
$GPGSA,A,2,05,20,13,28,,,,,,,,,2.17,1.93,0.99*03
$GPRMC,143525.310,A,3630.4362,N,00616.6368,W,0.07,332.03,060216,,,A*70
$GPVTG,332.03,T,,M,0.07,N,0.13,K,A*39

Time: 14:35:25.312
Date: 6/2/2016
Fix: 1 quality: 1
Location: 3630.4363N, 616.6368W
Speed (knots): 0.07
Angle: 332.03
Altitude: 24.30
Satellites: 4
$GPGGA,143527.000,3630.4357,N,00616.6385,W,1,04,1.93,12.0,M,48.6,M,,*44
$GPGSA,A,2,05,20,13,28,,,,,,,,,2.17,1.93,0.99*03
$GPGSV,2,1,07,13,64,349,39,05,62,180,42,20,52,294,39,28,48,086,40*7B
$GPGSV,2,2,07,33,46,195,,21,,,32,15,,,36*42
$GPRMC,143527.000,A,3630.4357,N,00616.6385,W,0.24,356.48,060216,,,A*79
$GPVTG,356.48,T,,M,0.24,N,0.45,K,A*36
$GPGGA,143528.000,3630.4351,N,00616.6393,W,1,04,1.93,1.1,M,48.6,M,,*79
$GPGSA,A,2,05,20,13,28,,,,,,,,,2.17,1.93,0.99*03
$GPRMC,143528.000,A,3630.4351,N,00616.6393,W,0.22,125.30,060216,,,A*78
$GPVTG,125.30,T,,M,0.22,N,0.41,K,A*3D

Time: 14:35:28.0
Date: 6/2/2016
Fix: 1 quality: 1
Location: 3630.4351N, 616.6393W
Speed (knots): 0.22
Angle: 125.30
Altitude: 1.10
Satellites: 4
$GPGGA,143529.000,3630.4349,N,00616.6396,W,1,04,1.93,-4.5,M,48.6,M,,*58
$GPGSA,A,2,05,20,13,28,,,,,,,,,2.17,1.93,0.99*03
$GPRMC,143529.000,A,3630.4349,N,00616.6396,W,0.12,116.46,060216,,,A*77
$GPVTG,116.46,T,,M,0.12,N,0.23,K,A*3B
$GPGGA,143530.000,3630.4351,N,00616.6394,W,1,04,1.93,0.7,M,48.6,M,,*70
$GPGSA,A,3,05,20,13,28,,,,,,,,,2.17,1.93,0.99*02
$GPRMC,143530.000,A,3630.4351,N,00616.6394,W,0.09,86.29,060216,,,A*4F
$GPVTG,86.29,T,,M,0.09,N,0.16,K,A*06

Time: 14:35:30.0
Date: 6/2/2016
Fix: 1 quality: 1
Location: 3630.4351N, 616.6394W
Speed (knots): 0.09
Angle: 86.29
Altitude: 0.70
Satellites: 4
$GPGGA,143531.000,3630.4353,N,00616.6391,W,1,04,1.93,4.6,M,48.6,M,,*73
$GPGSA,A,3,05,20,13,28,,,,,,,,,2.17,1.93,0.99*02
$GPRMC,143531.000,A,3630.4353,N,00616.6391,W,0.06,84.37,060216,,,A*4B
$GPVTG,84.37,T,,M,0.06,N,0.11,K,A*03
$GPGGA,143532.000,3630.4355,N,00616.6390,W,1,04,1.93,8.2,M,48.6,M,,*7F
$GPGSA,A,3,05,20,13,28,,,,,,,,,2.17,1.93,0.99*02
$GPGSV,2,1,07,13,64,349,38,05,62,180,42,20,52,294,38,28,48,086,40*7B
$GPGSV,2,2,07,33,46,195,36,21,,,32,15,,,34*45
$GPRMC,143532.000,A,3630.4355,N,00616.6390,W,0.01,217.48,060216,,,A*78
$GPVTG,217.48,T,,M,0.01,N,0.02,K,A*36

Time: 14:35:32.0
Date: 6/2/2016
Fix: 1 quality: 1
Location: 3630.4355N, 616.6390W
Speed (knots): 0.01
Angle: 217.48
Altitude: 8.20
Satellites: 4
$GPGGA,143533.000,3630.4356,N,00616.6388,W,1,04,1.93,10.8,M,48.6,M,,*47
$GPGSA,A,3,05,20,13,28,,,,,,,,,2.17,1.93,0.99*02
$GPRMC,143533.000,A,3630.4356,N,00616.6388,W,0.04,31.53,060216,,,A*4A
$GPVTG,31.53,T,,M,0.04,N,0.07,K,A*0A
$GPGGA,143534.000,3630.4355,N,00616.6387,W,1,04,1.93,13.6,M,48.6,M,,*41
$GPGSA,A,3,05,20,13,28,,,,,,,,,2.17,1.93,0.99*02
$GPRMC,143534.000,A,3630.4355,N,00616.6387,W,0.01,243.10,060216,,,A*74
$GPVTG,243.10,T,,M,0.01,N,0.02,K,A*3A

Time: 14:35:34.0
Date: 6/2/2016
Fix: 1 quality: 1
Location: 3630.4355N, 616.6387W
Speed (knots): 0.01
Angle: 243.10
Altitude: 13.60
Satellites: 4
$GPGGA,143535.000,3630.4355,N,00616.6385,W,1,04,1.93,16.3,M,48.6,M,,*42
$GPGSA,A,3,05,20,13,28,,,,,,,,,2.17,1.93,0.99*02
$GPRMC,143535.000,A,3630.4355,N,00616.6385,W,0.02,247.16,060216,,,A*76
$GPVTG,247.16,T,,M,0.02,N,0.04,K,A*3D
$GPGGA,143536.000,3630.4354,N,00616.6384,W,1,04,1.93,18.7,M,48.6,M,,*4B
$GPGSA,A,3,05,20,13,28,,,,,,,,,2.17,1.93,0.99*02
$GPRMC,143536.000,A,3630.4354,N,00616.6384,W,0.01,85.29,060216,,,A*46
$GPVTG,85.29,T,,M,0.01,N,0.02,K,A*08

Time: 14:35:36.0
Date: 6/2/2016
Fix: 1 quality: 1
Location: 3630.4353N, 616.6384W
Speed (knots): 0.01
Angle: 85.29
Altitude: 18.70
Satellites: 4
$GPGGA,143537.000,3630.4355,N,00616.6383,W,1,04,1.93,20.1,M,48.6,M,,*41
$GPGSA,A,3,05,20,13,28,,,,,,,,,2.17,1.93,0.99*02
$GPGSV,2,1,07,13,64,349,38,05,62,180,42,20,52,294,38,28,48,086,39*75
$GPGSV,2,2,07,33,46,195,36,21,,,31,15,,,34*46
$GPRMC,143537.000,A,3630.4355,N,00616.6383,W,0.01,24.46,060216,,,A*43
$GPVTG,24.46,T,,M,0.01,N,0.02,K,A*0A
$GPGGA,143538.000,3630.4354,N,00616.6382,W,1,04,1.93,20.9,M,48.6,M,,*46
$GPGSA,A,3,05,20,13,28,,,,,,,,,2.17,1.93,0.99*02
$GPRMC,143538.000,A,3630.4354,N,00616.6382,W,0.02,188.34,060216,,,A*7D
$GPVTG,188.34,T,,M,0.02,N,0.03,K,A*3A

Time: 14:35:38.0
Date: 6/2/2016
Fix: 1 quality: 1
Location: 3630.4353N, 616.6382W
Speed (knots): 0.02
Angle: 188.34
Altitude: 20.90
Satellites: 4
$GPGGA,143539.000,3630.4354,N,00616.6382,W,1,04,1.93,21.7,M,48.6,M,,*48
$GPGSA,A,3,05,20,13,28,,,,,,,,,2.17,1.93,0.99*02
$GPRMC,143539.000,A,3630.4354,N,00616.6382,W,0.00,230.13,060216,,,A*7B
$GPVTG,230.13,T,,M,0.00,N,0.01,K,A*3F
$GPGGA,143540.000,3630.4354,N,00616.6381,W,1,04,1.93,22.4,M,48.6,M,,*45
$GPGSA,A,3,05,20,13,28,,,,,,,,,2.17,1.93,0.99*02
$GPRMC,143540.000,A,3630.4354,N,00616.6381,W,0.01,107.97,060216,,,A*7C
$GPVTG,107.97,T,,M,0.01,N,0.02,K,A*36

Time: 14:35:40.0
Date: 6/2/2016
Fix: 1 quality: 1
Location: 3630.4353N, 616.6381W
Speed (knots): 0.01
Angle: 107.97
Altitude: 22.40
Satellites: 4
$GPGGA,143541.000,3630.4355,N,00616.6381,W,1,04,1.93,22.9,M,48.6,M,,*48
$GPGSA,A,3,05,20,13,28,,,,,,,,,2.17,1.93,0.99*02
$GPRMC,143541.000,A,3630.4355,N,00616.6381,W,0.01,294.55,060216,,,A*7B
$GPVTG,294.55,T,,M,0.01,N,0.02,K,A*31
$GPGGA,143542.000,3630.4356,N,00616.6381,W,1,04,1.93,23.4,M,48.6,M,,*44
$GPGSA,A,3,05,20,13,28,,,,,,,,,2.17,1.93,0.99*02
$GPGSV,2,1,07,13,64,349,38,05,62,180,42,20,52,294,38,28,48,086,40*7B
$GPGSV,2,2,07,33,46,195,36,21,,,32,15,,,34*45
$GPRMC,143542.000,A,3630.4356,N,00616.6381,W,0.01,134.82,060216,,,A*78
$GPVTG,134.82,T,,M,0.01,N,0.02,K,A*32

Time: 14:35:42.0
Date: 6/2/2016
Fix: 1 quality: 1
Location: 3630.4355N, 616.6381W
Speed (knots): 0.01
Angle: 134.82
Altitude: 23.40
Satellites: 4
$GPGGA,143543.000,3630.4356,N,00616.6380,W,1,04,1.93,24.0,M,48.6,M,,*47
$GPGSA,A,3,05,20,13,28,,,,,,,,,2.17,1.93,0.99*02
$GPRMC,143543.000,A,3630.4356,N,00616.6380,W,0.02,122.06,060216,,,A*70
$GPVTG,122.06,T,,M,0.02,N,0.04,K,A*3C
$GPGGA,143544.000,3630.4356,N,00616.6379,W,1,04,1.93,24.4,M,48.6,M,,*42
$GPGSA,A,3,05,20,13,28,,,,,,,,,2.17,1.93,0.99*02
$GPRMC,143544.000,A,3630.4356,N,00616.6379,W,0.01,252.01,060216,,,A*71
$GPVTG,252.01,T,,M,0.01,N,0.01,K,A*39

Time: 14:35:44.0
Date: 6/2/2016
Fix: 1 quality: 1
Location: 3630.4355N, 616.6379W
Speed (knots): 0.01
Angle: 252.01
Altitude: 24.40
Satellites: 4
$GPGGA,143545.000,3630.4356,N,00616.6378,W,1,04,1.93,25.1,M,48.6,M,,*46
$GPGSA,A,3,05,20,13,28,,,,,,,,,2.17,1.93,0.99*02
$GPRMC,143545.000,A,3630.4356,N,00616.6378,W,0.04,318.29,060216,,,A*71
$GPVTG,318.29,T,,M,0.04,N,0.08,K,A*30
$GPGGA,143546.000,3630.4356,N,00616.6377,W,1,04,1.93,25.4,M,48.6,M,,*4F
$GPGSA,A,3,05,20,13,28,,,,,,,,,2.17,1.93,0.99*02
$GPRMC,143546.000,A,3630.4356,N,00616.6377,W,0.02,201.50,060216,,,A*7C
$GPVTG,201.50,T,,M,0.02,N,0.04,K,A*3D

Time: 14:35:46.0
Date: 6/2/2016
Fix: 1 quality: 1
Location: 3630.4355N, 616.6377W
Speed (knots): 0.02
Angle: 201.50
Altitude: 25.40
Satellites: 4
$GPGGA,143547.000,3630.4355,N,00616.6377,W,1,04,1.93,25.5,M,48.6,M,,*4C
$GPGSA,A,3,05,20,13,28,,,,,,,,,2.17,1.93,0.99*02
$GPGSV,2,1,08,13,64,349,37,05,62,180,42,20,52,294,38,28,48,086,40*7B
$GPGSV,2,2,08,33,46,195,35,07,02,053,,21,,,32,15,,,34*7A
$GPRMC,143547.000,A,3630.4355,N,00616.6377,W,0.01,63.75,060216,,,A*4C
$GPVTG,63.75,T,,M,0.01,N,0.02,K,A*09
$GPGGA,143548.000,3630.4356,N,00616.6376,W,1,04,1.93,25.5,M,48.6,M,,*41
$GPGSA,A,3,05,20,13,28,,,,,,,,,2.17,1.93,0.99*02
$GPRMC,143548.000,A,3630.4356,N,00616.6376,W,0.01,221.29,060216,,,A*7C
$GPVTG,221.29,T,,M,0.01,N,0.02,K,A*34

Time: 14:35:48.0
Date: 6/2/2016
Fix: 1 quality: 1
Location: 3630.4355N, 616.6376W
Speed (knots): 0.01
Angle: 221.29
Altitude: 25.50
Satellites: 4
$GPGGA,143549.000,3630.4356,N,00616.6377,W,1,04,1.93,25.7,M,48.6,M,,*43
$GPGSA,A,3,05,20,13,28,,,,,,,,,2.17,1.93,0.99*02
$GPRMC,143549.000,A,3630.4356,N,00616.6377,W,0.28,245.64,060216,,,A*7C
$GPVTG,245.64,T,,M,0.28,N,0.53,K,A*30
$GPGGA,143550.000,3630.4356,N,00616.6377,W,1,04,1.93,25.9,M,48.6,M,,*45
$GPGSA,A,3,05,20,13,28,,,,,,,,,2.17,1.93,0.99*02
$GPRMC,143550.000,A,3630.4356,N,00616.6377,W,0.09,243.22,060216,,,A*73
$GPVTG,243.22,T,,M,0.09,N,0.16,K,A*36

Time: 14:35:50.0
Date: 6/2/2016
Fix: 1 quality: 1
Location: 3630.4355N, 616.6377W
Speed (knots): 0.09
Angle: 243.22
Altitude: 25.90
Satellites: 4
$GPGGA,143551.000,3630.4356,N,00616.6377,W,1,04,1.93,26.2,M,48.6,M,,*4C
$GPGSA,A,3,05,20,13,28,,,,,,,,,2.17,1.93,0.99*02
$GPRMC,143551.000,A,3630.4356,N,00616.6377,W,0.10,245.34,060216,,,A*7B
$GPVTG,245.34,T,,M,0.10,N,0.19,K,A*30
$GPGGA,143552.000,3630.4356,N,00616.6376,W,1,04,1.93,26.2,M,48.6,M,,*4E
$GPGSA,A,3,05,20,13,28,,,,,,,,,2.17,1.93,0.99*02
$GPGSV,2,1,08,13,64,349,37,05,62,180,42,20,52,294,38,28,48,086,40*7B
$GPGSV,2,2,08,33,46,195,36,07,02,053,,21,,,33,15,,,34*78
$GPRMC,143552.000,A,3630.4356,N,00616.6376,W,0.02,174.18,060216,,,A*75
$GPVTG,174.18,T,,M,0.02,N,0.03,K,A*37

Time: 14:35:52.0
Date: 6/2/2016
Fix: 1 quality: 1
Location: 3630.4355N, 616.6376W
Speed (knots): 0.02
Angle: 174.18
Altitude: 26.20
Satellites: 4
$GPGGA,143553.000,3630.4357,N,00616.6376,W,1,04,1.93,26.5,M,48.6,M,,*49
$GPGSA,A,3,05,20,13,28,,,,,,,,,2.17,1.93,0.99*02
$GPRMC,143553.000,A,3630.4357,N,00616.6376,W,0.02,243.45,060216,,,A*7A
$GPVTG,243.45,T,,M,0.02,N,0.03,K,A*38
$GPGGA,143554.000,3630.4357,N,00616.6376,W,1,04,1.93,26.8,M,48.6,M,,*43
$GPGSA,A,3,05,20,13,28,,,,,,,,,2.17,1.93,0.99*02
$GPRMC,143554.000,A,3630.4357,N,00616.6376,W,0.04,172.79,060216,,,A*75
$GPVTG,172.79,T,,M,0.04,N,0.07,K,A*34

Time: 14:35:54.0
Date: 6/2/2016
Fix: 1 quality: 1
Location: 3630.4358N, 616.6376W
Speed (knots): 0.04
Angle: 172.79
Altitude: 26.80
Satellites: 4
$GPGGA,143555.000,3630.4357,N,00616.6376,W,1,04,1.93,27.4,M,48.6,M,,*4F
$GPGSA,A,3,05,20,13,28,,,,,,,,,2.17,1.93,0.99*02
$GPRMC,143555.000,A,3630.4357,N,00616.6376,W,0.09,147.40,060216,,,A*75
$GPVTG,147.40,T,,M,0.09,N,0.17,K,A*34
$GPGGA,143556.000,3630.4357,N,00616.6375,W,1,04,1.93,27.5,M,48.6,M,,*4E
$GPGSA,A,3,05,20,13,28,,,,,,,,,2.17,1.93,0.99*02
$GPRMC,143556.000,A,3630.4357,N,00616.6375,W,0.17,134.25,060216,,,A*7D
$GPVTG,134.25,T,,M,0.17,N,0.31,K,A*38

Time: 14:35:56.0
Date: 6/2/2016
Fix: 1 quality: 1
Location: 3630.4358N, 616.6375W
Speed (knots): 0.17
Angle: 134.25
Altitude: 27.50
Satellites: 4
$GPGGA,143557.000,3630.4359,N,00616.6374,W,1,04,1.92,27.8,M,48.6,M,,*4C
$GPGSA,A,3,05,20,13,28,,,,,,,,,2.17,1.92,0.99*03
$GPGSV,2,1,08,13,64,349,37,05,62,180,42,20,52,294,38,28,48,085,38*77
$GPGSV,2,2,08,33,46,195,32,07,02,053,,21,,,34,15,,,34*7B
$GPRMC,143557.000,A,3630.4359,N,00616.6374,W,0.27,32.91,060216,,,A*48
$GPVTG,32.91,T,,M,0.27,N,0.50,K,A*04
$GPGGA,143558.000,3630.4360,N,00616.6373,W,1,04,1.93,28.3,M,48.6,M,,*4B
$GPGSA,A,3,05,20,13,28,,,,,,,,,2.17,1.93,0.99*02
$GPRMC,143558.000,A,3630.4360,N,00616.6373,W,0.11,63.81,060216,,,A*4A
$GPVTG,63.81,T,,M,0.11,N,0.21,K,A*02

Time: 14:35:58.0
Date: 6/2/2016
Fix: 1 quality: 1
Location: 3630.4360N, 616.6373W
Speed (knots): 0.11
Angle: 63.81
Altitude: 28.30
Satellites: 4
$GPGGA,143559.000,3630.4361,N,00616.6373,W,1,04,1.93,29.2,M,48.6,M,,*4B
$GPGSA,A,3,05,20,13,28,,,,,,,,,2.17,1.93,0.99*02
$GPRMC,143559.000,A,3630.4361,N,00616.6373,W,0.08,65.44,060216,,,A*4D
$GPVTG,65.44,T,,M,0.08,N,0.15,K,A*02
$GPGGA,143600.000,3630.4362,N,00616.6372,W,1,04,1.93,29.8,M,48.6,M,,*4C
$GPGSA,A,3,05,20,13,28,,,,,,,,,2.17,1.93,0.99*02
$GPRMC,143600.000,A,3630.4362,N,00616.6372,W,0.17,37.61,060216,,,A*4E
$GPVTG,37.61,T,,M,0.17,N,0.32,K,A*09

Time: 14:36:0.0
Date: 6/2/2016
Fix: 1 quality: 1
Location: 3630.4363N, 616.6372W
Speed (knots): 0.17
Angle: 37.61
Altitude: 29.80
Satellites: 4
$GPGGA,143601.000,3630.4363,N,00616.6370,W,1,04,1.93,30.3,M,48.6,M,,*4D
$GPGSA,A,3,05,20,13,28,,,,,,,,,2.17,1.93,0.99*02
$GPRMC,143601.000,A,3630.4363,N,00616.6370,W,0.21,46.64,060216,,,A*4A
$GPVTG,46.64,T,,M,0.21,N,0.39,K,A*04
$GPGGA,143602.000,3630.4365,N,00616.6371,W,1,05,1.79,29.8,M,48.6,M,,*4F
$GPGSA,A,3,05,20,13,28,15,,,,,,,,2.04,1.79,0.97*0E
$GPGSV,2,1,08,13,64,349,35,05,62,180,43,20,52,294,38,28,48,085,37*7B
$GPGSV,2,2,08,33,46,195,31,15,35,303,33,07,02,053,,21,,,34*49
$GPRMC,143602.000,A,3630.4365,N,00616.6371,W,0.33,0.17,060216,,,A*7B
$GPVTG,0.17,T,,M,0.33,N,0.62,K,A*3F

Time: 14:36:2.0
Date: 6/2/2016
Fix: 1 quality: 1
Location: 3630.4365N, 616.6371W
Speed (knots): 0.33
Angle: 0.17
Altitude: 29.80
Satellites: 5
$GPGGA,143603.000,3630.4365,N,00616.6371,W,1,05,1.88,29.6,M,48.6,M,,*4E
$GPGSA,A,3,05,20,13,28,15,,,,,,,,4.68,1.88,4.29*0D
$GPRMC,143603.000,A,3630.4365,N,00616.6371,W,0.13,10.96,060216,,,A*40
$GPVTG,10.96,T,,M,0.13,N,0.24,K,A*07
$GPGGA,143604.000,3630.4365,N,00616.6372,W,1,05,1.87,28.9,M,48.6,M,,*4B
$GPGSA,A,3,05,20,13,28,15,,,,,,,,4.68,1.87,4.29*02
$GPRMC,143604.000,A,3630.4365,N,00616.6372,W,0.08,200.70,060216,,,A*75
$GPVTG,200.70,T,,M,0.08,N,0.15,K,A*34

Time: 14:36:4.0
Date: 6/2/2016
Fix: 1 quality: 1
Location: 3630.4365N, 616.6372W
Speed (knots): 0.08
Angle: 200.70
Altitude: 28.90
Satellites: 5
$GPGGA,143605.000,3630.4365,N,00616.6372,W,1,05,1.79,28.4,M,48.6,M,,*46
$GPGSA,A,3,05,20,13,28,15,,,,,,,,2.04,1.79,0.97*0E
$GPRMC,143605.000,A,3630.4365,N,00616.6372,W,0.13,175.79,060216,,,A*76
$GPVTG,175.79,T,,M,0.13,N,0.24,K,A*34
$GPGGA,143606.000,3630.4365,N,00616.6373,W,1,05,1.79,27.9,M,48.6,M,,*46
$GPGSA,A,3,05,20,13,28,15,,,,,,,,2.04,1.79,0.97*0E
$GPRMC,143606.000,A,3630.4365,N,00616.6373,W,0.10,196.25,060216,,,A*73
$GPVTG,196.25,T,,M,0.10,N,0.19,K,A*3D

Time: 14:36:6.0
Date: 6/2/2016
Fix: 1 quality: 1
Location: 3630.4365N, 616.6373W
Speed (knots): 0.10
Angle: 196.25
Altitude: 27.90
Satellites: 5
$GPGGA,143607.000,3630.4366,N,00616.6372,W,1,05,1.79,27.6,M,48.6,M,,*4A
$GPGSA,A,3,05,20,13,28,15,,,,,,,,2.04,1.79,0.97*0E
$GPGSV,2,1,08,13,64,349,36,05,62,180,42,20,52,294,39,28,48,085,37*78
$GPGSV,2,2,08,33,46,195,33,15,35,303,34,07,02,053,,21,,,34*4C
$GPRMC,143607.000,A,3630.4366,N,00616.6372,W,0.06,178.62,060216,,,A*74
$GPVTG,178.62,T,,M,0.06,N,0.11,K,A*31
$GPGGA,143608.000,3630.4366,N,00616.6372,W,1,05,1.79,27.2,M,48.6,M,,*41
$GPGSA,A,3,05,20,13,28,15,,,,,,,,2.04,1.79,0.97*0E
$GPRMC,143608.000,A,3630.4366,N,00616.6372,W,0.10,300.88,060216,,,A*75
$GPVTG,300.88,T,,M,0.10,N,0.19,K,A*37

Time: 14:36:8.0
Date: 6/2/2016
Fix: 1 quality: 1
Location: 3630.4365N, 616.6372W
Speed (knots): 0.10
Angle: 300.88
Altitude: 27.20
Satellites: 5
$GPGGA,143609.000,3630.4363,N,00616.6375,W,1,05,1.79,26.8,M,48.6,M,,*49
$GPGSA,A,3,05,20,13,28,15,,,,,,,,2.04,1.79,0.97*0E
$GPRMC,143609.000,A,3630.4363,N,00616.6375,W,0.66,204.48,060216,,,A*7E
$GPVTG,204.48,T,,M,0.66,N,1.22,K,A*36
$GPGGA,143610.000,3630.4363,N,00616.6376,W,1,05,1.79,26.5,M,48.6,M,,*4F
$GPGSA,A,3,05,20,13,28,15,,,,,,,,2.04,1.79,0.97*0E
$GPRMC,143610.000,A,3630.4363,N,00616.6376,W,0.31,219.00,060216,,,A*77
$GPVTG,219.00,T,,M,0.31,N,0.58,K,A*38

Time: 14:36:10.0
Date: 6/2/2016
Fix: 1 quality: 1
Location: 3630.4363N, 616.6376W
Speed (knots): 0.31
Angle: 219.00
Altitude: 26.50
Satellites: 5
$GPGGA,143611.000,3630.4363,N,00616.6375,W,1,05,1.79,26.2,M,48.6,M,,*4A
$GPGSA,A,3,05,20,13,28,15,,,,,,,,2.04,1.79,0.97*0E
$GPRMC,143611.000,A,3630.4363,N,00616.6375,W,0.16,251.66,060216,,,A*7C
$GPVTG,251.66,T,,M,0.16,N,0.30,K,A*3F
$GPGGA,143612.000,3630.4363,N,00616.6375,W,1,05,1.79,26.2,M,48.6,M,,*49
$GPGSA,A,3,05,20,13,28,15,,,,,,,,2.04,1.79,0.97*0E
$GPGSV,3,1,09,13,64,349,36,05,62,180,42,20,52,294,39,28,48,085,35*7A
$GPGSV,3,2,09,33,46,195,31,15,35,303,35,30,30,048,,07,02,053,*77
$GPGSV,3,3,09,21,,,31*71
$GPRMC,143612.000,A,3630.4363,N,00616.6375,W,0.01,47.55,060216,,,A*4C
$GPVTG,47.55,T,,M,0.01,N,0.02,K,A*0D

Time: 14:36:12.0
Date: 6/2/2016
Fix: 1 quality: 1
Location: 3630.4363N, 616.6375W
Speed (knots): 0.01
Angle: 47.55
Altitude: 26.20
Satellites: 5
$GPGGA,143613.000,3630.4364,N,00616.6374,W,1,05,1.79,26.0,M,48.6,M,,*4C
$GPGSA,A,3,05,20,13,28,15,,,,,,,,2.04,1.79,0.97*0E
$GPRMC,143613.000,A,3630.4364,N,00616.6374,W,0.01,244.08,060216,,,A*72
$GPVTG,244.08,T,,M,0.01,N,0.02,K,A*34
$GPGGA,143614.000,3630.4365,N,00616.6374,W,1,05,1.79,25.9,M,48.6,M,,*40
$GPGSA,A,3,05,20,13,28,15,,,,,,,,2.04,1.79,0.97*0E
$GPRMC,143614.000,A,3630.4365,N,00616.6374,W,0.01,293.30,060216,,,A*75
$GPVTG,293.30,T,,M,0.01,N,0.01,K,A*36

Time: 14:36:14.0
Date: 6/2/2016
Fix: 1 quality: 1
Location: 3630.4365N, 616.6374W
Speed (knots): 0.01
Angle: 293.30
Altitude: 25.90
Satellites: 5
$GPGGA,143615.000,3630.4365,N,00616.6374,W,1,05,1.79,25.5,M,48.6,M,,*4D
$GPGSA,A,3,05,20,13,28,15,,,,,,,,2.04,1.79,0.97*0E
$GPRMC,143615.000,A,3630.4365,N,00616.6374,W,0.00,98.47,060216,,,A*4C
$GPVTG,98.47,T,,M,0.00,N,0.00,K,A*0F
$GPGGA,143616.000,3630.4365,N,00616.6374,W,1,05,1.79,25.5,M,48.6,M,,*4E
$GPGSA,A,3,05,20,13,28,15,,,,,,,,2.04,1.79,0.97*0E
$GPRMC,143616.000,A,3630.4365,N,00616.6374,W,0.04,159.10,060216,,,A*75
$GPVTG,159.10,T,,M,0.04,N,0.07,K,A*32

Time: 14:36:16.0
Date: 6/2/2016
Fix: 1 quality: 1
Location: 3630.4365N, 616.6374W
Speed (knots): 0.04
Angle: 159.10
Altitude: 25.50
Satellites: 5
$GPGGA,143617.000,3630.4365,N,00616.6374,W,1,05,1.79,25.5,M,48.6,M,,*4F
$GPGSA,A,3,05,20,13,28,15,,,,,,,,2.04,1.79,0.97*0E
$GPGSV,3,1,09,13,64,349,36,05,62,180,44,20,52,294,40,28,48,085,37*70
$GPGSV,3,2,09,33,46,195,35,15,35,303,36,30,30,048,,07,02,053,*70
$GPGSV,3,3,09,21,,,32*72
$GPRMC,143617.000,A,3630.4365,N,00616.6374,W,0.05,198.36,060216,,,A*7C
$GPVTG,198.36,T,,M,0.05,N,0.10,K,A*3C
$GPGGA,143618.000,3630.4365,N,00616.6374,W,1,05,1.79,25.5,M,48.6,M,,*40
$GPGSA,A,3,05,20,13,28,15,,,,,,,,2.04,1.79,0.97*0E
$GPRMC,143618.000,A,3630.4365,N,00616.6374,W,0.03,194.18,060216,,,A*75
$GPVTG,194.18,T,,M,0.03,N,0.06,K,A*3D

Time: 14:36:18.0
Date: 6/2/2016
Fix: 1 quality: 1
Location: 3630.4365N, 616.6374W
Speed (knots): 0.03
Angle: 194.18
Altitude: 25.50
Satellites: 5
$GPGGA,143619.000,3630.4365,N,00616.6374,W,1,05,1.79,25.5,M,48.6,M,,*41
$GPGSA,A,3,05,20,13,28,15,,,,,,,,2.04,1.79,0.97*0E
$GPRMC,143619.000,A,3630.4365,N,00616.6374,W,0.16,344.98,060216,,,A*77
$GPVTG,344.98,T,,M,0.16,N,0.30,K,A*3B
$GPGGA,143620.000,3630.4366,N,00616.6374,W,1,05,1.79,25.5,M,48.6,M,,*48
$GPGSA,A,3,05,20,13,28,15,,,,,,,,2.04,1.79,0.97*0E
$GPRMC,143620.000,A,3630.4366,N,00616.6374,W,0.14,304.49,060216,,,A*74
$GPVTG,304.49,T,,M,0.14,N,0.26,K,A*36

Time: 14:36:20.0
Date: 6/2/2016
Fix: 1 quality: 1
Location: 3630.4365N, 616.6374W
Speed (knots): 0.14
Angle: 304.49
Altitude: 25.50
Satellites: 5
$GPGGA,143621.000,3630.4366,N,00616.6374,W,1,05,1.79,25.5,M,48.6,M,,*49
$GPGSA,A,3,05,20,13,28,15,,,,,,,,2.04,1.79,0.97*0E
$GPRMC,143621.000,A,3630.4366,N,00616.6374,W,0.04,288.18,060216,,,A*75
$GPVTG,288.18,T,,M,0.04,N,0.07,K,A*35
$GPGGA,143622.000,3630.4366,N,00616.6374,W,1,05,1.79,25.5,M,48.6,M,,*4A
$GPGSA,A,3,05,20,13,28,15,,,,,,,,2.03,1.79,0.97*09
$GPGSV,3,1,09,13,65,350,36,05,62,180,43,20,52,294,40,28,48,085,36*7F
$GPGSV,3,2,09,33,46,195,36,15,35,303,36,30,30,048,,07,02,053,*73
$GPGSV,3,3,09,21,,,32*72
$GPRMC,143622.000,A,3630.4366,N,00616.6374,W,0.01,224.80,060216,,,A*74
$GPVTG,224.80,T,,M,0.01,N,0.02,K,A*32

Time: 14:36:22.0
Date: 6/2/2016
Fix: 1 quality: 1
Location: 3630.4365N, 616.6374W
Speed (knots): 0.01
Angle: 224.80
Altitude: 25.50
Satellites: 5
$GPGGA,143623.000,3630.4366,N,00616.6374,W,1,05,1.79,25.5,M,48.6,M,,*4B
$GPGSA,A,3,05,20,13,28,15,,,,,,,,2.03,1.79,0.97*09
$GPRMC,143623.000,A,3630.4366,N,00616.6374,W,0.01,60.05,060216,,,A*4A
$GPVTG,60.05,T,,M,0.01,N,0.02,K,A*0D
$GPGGA,143624.000,3630.4366,N,00616.6374,W,1,05,1.79,25.5,M,48.6,M,,*4C
$GPGSA,A,3,05,20,13,28,15,,,,,,,,2.04,1.79,0.97*0E
$GPRMC,143624.000,A,3630.4366,N,00616.6374,W,0.02,262.43,060216,,,A*7C
$GPVTG,262.43,T,,M,0.02,N,0.04,K,A*3A

Time: 14:36:24.0
Date: 6/2/2016
Fix: 1 quality: 1
Location: 3630.4365N, 616.6374W
Speed (knots): 0.02
Angle: 262.43
Altitude: 25.50
Satellites: 5
$GPGGA,143625.000,3630.4366,N,00616.6374,W,1,05,1.79,25.5,M,48.6,M,,*4D
$GPGSA,A,3,05,20,13,28,15,,,,,,,,2.04,1.79,0.97*0E
$GPRMC,143625.000,A,3630.4366,N,00616.6374,W,0.01,100.28,060216,,,A*74
$GPVTG,100.28,T,,M,0.01,N,0.02,K,A*35
$GPGGA,143626.000,3630.4366,N,00616.6374,W,1,05,1.79,25.5,M,48.6,M,,*4E
$GPGSA,A,3,05,20,13,28,15,,,,,,,,2.03,1.79,0.97*09
$GPRMC,143626.000,A,3630.4366,N,00616.6374,W,0.03,0.07,060216,,,A*79
$GPVTG,0.07,T,,M,0.03,N,0.06,K,A*3F

Time: 14:36:26.0
Date: 6/2/2016
Fix: 1 quality: 1
Location: 3630.4365N, 616.6374W
Speed (knots): 0.03
Angle: 0.07
Altitude: 25.50
Satellites: 5
$GPGGA,143627.000,3630.4366,N,00616.6374,W,1,05,1.86,25.5,M,48.6,M,,*4F
$GPGSA,A,3,05,20,13,28,15,,,,,,,,4.69,1.86,4.31*0B
$GPGSV,3,1,09,13,65,350,36,05,62,180,42,20,53,294,40,28,48,085,38*71
$GPGSV,3,2,09,33,46,195,30,15,35,303,36,30,30,048,,07,02,053,*75
$GPGSV,3,3,09,21,,,32*72
$GPRMC,143627.000,A,3630.4366,N,00616.6374,W,0.03,135.64,060216,,,A*7A
$GPVTG,135.64,T,,M,0.03,N,0.05,K,A*3E
$GPGGA,143628.000,3630.4366,N,00616.6374,W,1,05,1.79,25.5,M,48.6,M,,*40
$GPGSA,A,3,05,20,13,28,15,,,,,,,,2.03,1.79,0.97*09
$GPRMC,143628.000,A,3630.4366,N,00616.6374,W,0.02,240.25,060216,,,A*70
$GPVTG,240.25,T,,M,0.02,N,0.04,K,A*3A

Time: 14:36:28.0
Date: 6/2/2016
Fix: 1 quality: 1
Location: 3630.4365N, 616.6374W
Speed (knots): 0.02
Angle: 240.25
Altitude: 25.50
Satellites: 5
$GPGGA,143629.000,3630.4366,N,00616.6374,W,1,05,1.79,25.5,M,48.6,M,,*41
$GPGSA,A,3,05,20,13,28,15,,,,,,,,2.04,1.79,0.97*0E
$GPRMC,143629.000,A,3630.4366,N,00616.6374,W,0.02,194.13,060216,,,A*7E
$GPVTG,194.13,T,,M,0.02,N,0.03,K,A*32
$GPGGA,143630.000,3630.4366,N,00616.6374,W,1,05,1.79,25.5,M,48.6,M,,*49
$GPGSA,A,3,05,20,13,28,15,,,,,,,,2.03,1.79,0.97*09
$GPRMC,143630.000,A,3630.4366,N,00616.6374,W,0.01,169.35,060216,,,A*73
$GPVTG,169.35,T,,M,0.01,N,0.02,K,A*36

Time: 14:36:30.0
Date: 6/2/2016
Fix: 1 quality: 1
Location: 3630.4365N, 616.6374W
Speed (knots): 0.01
Angle: 169.35
Altitude: 25.50
Satellites: 5
$GPGGA,143631.000,3630.4366,N,00616.6374,W,1,05,1.79,25.5,M,48.6,M,,*48
$GPGSA,A,3,05,20,13,28,15,,,,,,,,2.04,1.79,0.97*0E
$GPRMC,143631.000,A,3630.4366,N,00616.6374,W,0.01,240.41,060216,,,A*79
$GPVTG,240.41,T,,M,0.01,N,0.01,K,A*3E
$GPGGA,143632.000,3630.4366,N,00616.6374,W,1,06,1.72,25.5,M,48.6,M,,*43
$GPGSA,A,3,05,20,13,21,28,15,,,,,,,1.94,1.72,0.90*0B
$GPGSV,3,1,09,13,65,350,34,05,62,180,41,20,53,294,40,28,48,085,37*7F
$GPGSV,3,2,09,33,46,195,33,15,35,303,37,30,30,048,,21,08,309,30*76
$GPGSV,3,3,09,07,02,053,23*42
$GPRMC,143632.000,A,3630.4366,N,00616.6374,W,0.01,226.82,060216,,,A*75
$GPVTG,226.82,T,,M,0.01,N,0.03,K,A*33

Time: 14:36:32.0
Date: 6/2/2016
Fix: 1 quality: 1
Location: 3630.4365N, 616.6374W
Speed (knots): 0.01
Angle: 226.82
Altitude: 25.50
Satellites: 6
$GPGGA,143633.000,3630.4366,N,00616.6374,W,1,06,1.72,25.5,M,48.6,M,,*42
$GPGSA,A,3,05,20,13,21,28,15,,,,,,,1.94,1.72,0.90*0B
$GPRMC,143633.000,A,3630.4366,N,00616.6374,W,0.03,30.39,060216,,,A*43
$GPVTG,30.39,T,,M,0.03,N,0.05,K,A*02
$GPGGA,143634.000,3630.4366,N,00616.6374,W,1,06,1.72,25.5,M,48.6,M,,*45
$GPGSA,A,3,05,20,13,21,28,15,,,,,,,1.95,1.72,0.90*0A
$GPRMC,143634.000,A,3630.4366,N,00616.6374,W,0.06,214.44,060216,,,A*7F
$GPVTG,214.44,T,,M,0.06,N,0.11,K,A*3C

Time: 14:36:34.0
Date: 6/2/2016
Fix: 1 quality: 1
Location: 3630.4365N, 616.6374W
Speed (knots): 0.06
Angle: 214.44
Altitude: 25.50
Satellites: 6
$GPGGA,143635.000,3630.4366,N,00616.6374,W,1,06,1.72,25.5,M,48.6,M,,*44
$GPGSA,A,3,05,20,13,21,28,15,,,,,,,1.94,1.72,0.90*0B
$GPRMC,143635.000,A,3630.4366,N,00616.6374,W,0.02,88.66,060216,,,A*4D
$GPVTG,88.66,T,,M,0.02,N,0.04,K,A*0B
$GPGGA,143636.000,3630.4366,N,00616.6374,W,1,06,1.72,25.5,M,48.6,M,,*47
$GPGSA,A,3,05,20,13,21,28,15,,,,,,,1.94,1.72,0.90*0B
$GPRMC,143636.000,A,3630.4366,N,00616.6374,W,0.01,291.94,060216,,,A*7A
$GPVTG,291.94,T,,M,0.01,N,0.03,K,A*38

Time: 14:36:36.0
Date: 6/2/2016
Fix: 1 quality: 1
Location: 3630.4365N, 616.6374W
Speed (knots): 0.01
Angle: 291.94
Altitude: 25.50
Satellites: 6
$GPGGA,143637.000,3630.4366,N,00616.6374,W,1,06,1.72,25.5,M,48.6,M,,*46
$GPGSA,A,3,05,20,13,21,28,15,,,,,,,1.94,1.72,0.90*0B
$GPGSV,3,1,09,13,65,350,35,05,62,180,41,20,53,294,41,28,48,085,35*7D
$GPGSV,3,2,09,33,46,195,33,15,35,303,37,30,29,048,,21,08,309,30*7E
$GPGSV,3,3,09,07,02,053,22*43
$GPRMC,143637.000,A,3630.4366,N,00616.6374,W,0.02,214.71,060216,,,A*7E
$GPVTG,214.71,T,,M,0.02,N,0.04,K,A*3A
$GPGGA,143638.000,3630.4366,N,00616.6374,W,1,06,1.72,25.5,M,48.6,M,,*49
$GPGSA,A,3,05,20,13,21,28,15,,,,,,,1.94,1.72,0.90*0B
$GPRMC,143638.000,A,3630.4366,N,00616.6374,W,0.01,13.48,060216,,,A*4D
$GPVTG,13.48,T,,M,0.01,N,0.02,K,A*00

Time: 14:36:38.0
Date: 6/2/2016
Fix: 1 quality: 1
Location: 3630.4365N, 616.6374W
Speed (knots): 0.01
Angle: 13.48
Altitude: 25.50
Satellites: 6
$GPGGA,143639.000,3630.4366,N,00616.6374,W,1,06,1.85,25.5,M,48.6,M,,*40
$GPGSA,A,3,05,20,13,21,28,15,,,,,,,2.78,1.85,2.08*01
$GPRMC,143639.000,A,3630.4366,N,00616.6374,W,0.03,54.68,060216,,,A*4F
$GPVTG,54.68,T,,M,0.03,N,0.05,K,A*04
$GPGGA,143640.000,3630.4366,N,00616.6374,W,1,06,1.72,25.5,M,48.6,M,,*46
$GPGSA,A,3,05,20,13,21,28,15,,,,,,,1.94,1.72,0.90*0B
$GPRMC,143640.000,A,3630.4366,N,00616.6374,W,0.02,238.36,060216,,,A*73
$GPVTG,238.36,T,,M,0.02,N,0.03,K,A*30

Time: 14:36:40.0
Date: 6/2/2016
Fix: 1 quality: 1
Location: 3630.4365N, 616.6374W
Speed (knots): 0.02
Angle: 238.36
Altitude: 25.50
Satellites: 6
$GPGGA,143641.000,3630.4366,N,00616.6374,W,1,06,1.72,25.6,M,48.6,M,,*44
$GPGSA,A,3,05,20,13,21,28,15,,,,,,,1.94,1.72,0.90*0B
$GPRMC,143641.000,A,3630.4366,N,00616.6374,W,0.01,109.40,060216,,,A*71
$GPVTG,109.40,T,,M,0.01,N,0.02,K,A*32
$GPGGA,143642.000,3630.4366,N,00616.6374,W,1,06,1.72,25.6,M,48.6,M,,*47
$GPGSA,A,3,05,20,13,21,28,15,,,,,,,1.94,1.72,0.90*0B
$GPGSV,3,1,09,13,65,350,35,05,62,180,41,20,53,294,41,28,48,085,36*7E
$GPGSV,3,2,09,33,46,195,34,15,35,303,37,30,29,048,,21,08,309,30*79
$GPGSV,3,3,09,07,02,053,21*40
$GPRMC,143642.000,A,3630.4366,N,00616.6374,W,0.04,249.99,060216,,,A*74
$GPVTG,249.99,T,,M,0.04,N,0.08,K,A*3E

Time: 14:36:42.0
Date: 6/2/2016
Fix: 1 quality: 1
Location: 3630.4365N, 616.6374W
Speed (knots): 0.04
Angle: 249.99
Altitude: 25.60
Satellites: 6
$GPGGA,143643.000,3630.4366,N,00616.6374,W,1,06,1.72,25.6,M,48.6,M,,*46
$GPGSA,A,3,05,20,13,21,28,15,,,,,,,1.94,1.72,0.90*0B
$GPRMC,143643.000,A,3630.4366,N,00616.6374,W,0.01,57.03,060216,,,A*4E
$GPVTG,57.03,T,,M,0.01,N,0.01,K,A*0C
$GPGGA,143644.000,3630.4366,N,00616.6374,W,1,06,1.72,25.6,M,48.6,M,,*41
$GPGSA,A,3,05,20,13,21,28,15,,,,,,,1.94,1.72,0.90*0B
$GPRMC,143644.000,A,3630.4366,N,00616.6374,W,0.01,355.11,060216,,,A*7B
$GPVTG,355.11,T,,M,0.01,N,0.03,K,A*3C

Time: 14:36:44.0
Date: 6/2/2016
Fix: 1 quality: 1
Location: 3630.4365N, 616.6374W
Speed (knots): 0.01
Angle: 355.11
Altitude: 25.60
Satellites: 6
$GPGGA,143645.000,3630.4366,N,00616.6374,W,1,06,1.84,25.6,M,48.6,M,,*49
$GPGSA,A,3,05,20,13,21,28,15,,,,,,,2.78,1.84,2.08*00
$GPRMC,143645.000,A,3630.4366,N,00616.6374,W,0.02,176.39,060216,,,A*70
$GPVTG,176.39,T,,M,0.02,N,0.03,K,A*36
$GPGGA,143646.000,3630.4366,N,00616.6374,W,1,06,1.72,25.6,M,48.6,M,,*43
$GPGSA,A,3,05,20,13,21,28,15,,,,,,,1.94,1.72,0.90*0B
$GPRMC,143646.000,A,3630.4366,N,00616.6374,W,0.02,352.18,060216,,,A*74
$GPVTG,352.18,T,,M,0.02,N,0.04,K,A*36

Time: 14:36:46.0
Date: 6/2/2016
Fix: 1 quality: 1
Location: 3630.4365N, 616.6374W
Speed (knots): 0.02
Angle: 352.18
Altitude: 25.60
Satellites: 6
$GPGGA,143647.000,3630.4366,N,00616.6374,W,1,06,1.84,25.6,M,48.6,M,,*4B
$GPGSA,A,3,05,20,13,21,28,15,,,,,,,2.78,1.84,2.08*00
$GPGSV,3,1,09,13,65,350,35,05,62,180,42,20,53,294,41,28,48,085,36*7D
$GPGSV,3,2,09,33,46,195,36,15,35,303,36,30,29,048,,21,08,309,30*7A
$GPGSV,3,3,09,07,02,053,21*40
$GPRMC,143647.000,A,3630.4366,N,00616.6374,W,0.01,188.31,060216,,,A*78
$GPVTG,188.31,T,,M,0.01,N,0.02,K,A*3D
$GPGGA,143648.000,3630.4366,N,00616.6374,W,1,06,1.72,25.6,M,48.6,M,,*4D
$GPGSA,A,3,05,20,13,21,28,15,,,,,,,1.94,1.72,0.90*0B
$GPRMC,143648.000,A,3630.4366,N,00616.6374,W,0.01,68.11,060216,,,A*4A
$GPVTG,68.11,T,,M,0.01,N,0.02,K,A*00

Time: 14:36:48.0
Date: 6/2/2016
Fix: 1 quality: 1
Location: 3630.4365N, 616.6374W
Speed (knots): 0.01
Angle: 68.11
Altitude: 25.60
Satellites: 6
$GPGGA,143649.000,3630.4366,N,00616.6374,W,2,06,1.72,25.7,M,48.6,M,0000,0000*4E
$GPGSA,A,3,05,20,13,21,28,15,,,,,,,1.94,1.72,0.90*0B
$GPRMC,143649.000,A,3630.4366,N,00616.6374,W,0.00,22.57,060216,,,D*43
$GPVTG,22.57,T,,M,0.00,N,0.01,K,D*0B
$GPGGA,143650.000,3630.4366,N,00616.6374,W,2,06,1.72,25.9,M,48.6,M,0000,0000*48
$GPGSA,A,3,05,20,13,21,28,15,,,,,,,1.94,1.72,0.90*0B
$GPRMC,143650.000,A,3630.4366,N,00616.6374,W,0.01,86.96,060216,,,D*49
$GPVTG,86.96,T,,M,0.01,N,0.01,K,D*09

Time: 14:36:50.0
Date: 6/2/2016
Fix: 1 quality: 2
Location: 3630.4365N, 616.6374W
Speed (knots): 0.01
Angle: 86.96
Altitude: 25.90
Satellites: 6
$GPGGA,143651.000,3630.4367,N,00616.6374,W,2,06,1.72,26.0,M,48.6,M,0000,0000*42
$GPGSA,A,3,05,20,13,21,28,15,,,,,,,1.94,1.72,0.90*0B
$GPRMC,143651.000,A,3630.4367,N,00616.6374,W,0.00,61.75,060216,,,D*4C
$GPVTG,61.75,T,,M,0.00,N,0.00,K,D*0D
$GPGGA,143652.000,3630.4367,N,00616.6375,W,2,06,1.72,26.1,M,48.6,M,0000,0000*41
$GPGSA,A,3,05,20,13,21,28,15,,,,,,,1.94,1.72,0.90*0B
$GPGSV,3,1,09,13,65,350,35,05,61,180,42,20,53,294,41,28,48,085,36*7E
$GPGSV,3,2,09,33,46,195,36,15,35,303,34,30,29,048,24,21,08,309,30*7E
$GPGSV,3,3,09,07,02,053,22*43
$GPRMC,143652.000,A,3630.4367,N,00616.6375,W,0.01,247.94,060216,,,D*76
$GPVTG,247.94,T,,M,0.01,N,0.02,K,D*37

Time: 14:36:52.0
Date: 6/2/2016
Fix: 1 quality: 2
Location: 3630.4368N, 616.6375W
Speed (knots): 0.01
Angle: 247.94
Altitude: 26.10
Satellites: 6
$GPGGA,143653.000,3630.4367,N,00616.6375,W,2,06,1.72,26.3,M,48.6,M,0000,0000*42
$GPGSA,A,3,05,20,13,21,28,15,,,,,,,1.94,1.72,0.90*0B
$GPRMC,143653.000,A,3630.4367,N,00616.6375,W,0.01,284.12,060216,,,D*76
$GPVTG,284.12,T,,M,0.01,N,0.01,K,D*35
$GPGGA,143654.000,3630.4368,N,00616.6375,W,2,06,1.72,26.4,M,48.6,M,0000,0000*4D
$GPGSA,A,3,05,20,13,21,28,15,,,,,,,1.94,1.72,0.90*0B
$GPRMC,143654.000,A,3630.4368,N,00616.6375,W,0.01,285.26,060216,,,D*78
$GPVTG,285.26,T,,M,0.01,N,0.02,K,D*30

Time: 14:36:54.0
Date: 6/2/2016
Fix: 1 quality: 2
Location: 3630.4368N, 616.6375W
Speed (knots): 0.01
Angle: 285.26
Altitude: 26.40
Satellites: 6
$GPGGA,143655.000,3630.4368,N,00616.6375,W,2,06,1.71,26.5,M,48.6,M,0000,0000*4E
$GPGSA,A,3,05,20,13,21,28,15,,,,,,,1.94,1.71,0.90*08
$GPRMC,143655.000,A,3630.4368,N,00616.6375,W,0.01,290.35,060216,,,D*7F
$GPVTG,290.35,T,,M,0.01,N,0.02,K,D*36
$GPGGA,143656.000,3630.4368,N,00616.6375,W,2,06,1.72,26.5,M,48.6,M,0000,0000*4E
$GPGSA,A,3,05,20,13,21,28,15,,,,,,,1.94,1.72,0.90*0B
$GPRMC,143656.000,A,3630.4368,N,00616.6375,W,0.04,258.06,060216,,,D*7D
$GPVTG,258.06,T,,M,0.04,N,0.07,K,D*32

Time: 14:36:56.0
Date: 6/2/2016
Fix: 1 quality: 2
Location: 3630.4368N, 616.6375W
Speed (knots): 0.04
Angle: 258.06
Altitude: 26.50
Satellites: 6
$GPGGA,143657.000,3630.4368,N,00616.6375,W,2,06,1.72,26.5,M,48.6,M,0000,0000*4F
$GPGSA,A,3,05,20,13,21,28,15,,,,,,,1.94,1.72,0.90*0B
$GPGSV,3,1,09,13,65,350,35,05,61,180,43,20,53,294,41,28,48,085,37*7E
$GPGSV,3,2,09,33,46,195,37,15,35,303,36,30,29,048,23,21,08,309,30*7A
$GPGSV,3,3,09,07,02,053,18*4A
$GPRMC,143657.000,A,3630.4368,N,00616.6375,W,0.02,233.16,060216,,,D*76
$GPVTG,233.16,T,,M,0.02,N,0.05,K,D*3A
$GPGGA,143658.000,3630.4368,N,00616.6375,W,2,06,1.72,26.4,M,48.6,M,0000,0000*41
$GPGSA,A,3,05,20,13,21,28,15,,,,,,,1.94,1.72,0.90*0B
$GPRMC,143658.000,A,3630.4368,N,00616.6375,W,0.03,220.82,060216,,,D*77
$GPVTG,220.82,T,,M,0.03,N,0.05,K,D*34

Time: 14:36:58.0
Date: 6/2/2016
Fix: 1 quality: 2
Location: 3630.4368N, 616.6375W
Speed (knots): 0.03
Angle: 220.82
Altitude: 26.40
Satellites: 6
$GPGGA,143659.000,3630.4368,N,00616.6375,W,2,06,1.71,26.4,M,48.6,M,0000,0000*43
$GPGSA,A,3,05,20,13,21,28,15,,,,,,,1.94,1.71,0.90*08
$GPRMC,143659.000,A,3630.4368,N,00616.6375,W,0.03,135.33,060216,,,D*7B
$GPVTG,135.33,T,,M,0.03,N,0.05,K,D*39
$GPGGA,143700.000,3630.4368,N,00616.6375,W,2,06,1.71,26.5,M,48.6,M,0000,0000*4F
$GPGSA,A,3,05,20,13,21,28,15,,,,,,,1.94,1.71,0.90*08
$GPRMC,143700.000,A,3630.4368,N,00616.6375,W,0.01,139.35,060216,,,D*7E
$GPVTG,139.35,T,,M,0.01,N,0.02,K,D*36

Time: 14:37:0.0
Date: 6/2/2016
Fix: 1 quality: 2
Location: 3630.4368N, 616.6375W
Speed (knots): 0.01
Angle: 139.35
Altitude: 26.50
Satellites: 6
$GPGGA,143701.000,3630.4368,N,00616.6375,W,2,06,1.71,26.5,M,48.6,M,0000,0000*4E
$GPGSA,A,3,05,20,13,21,28,15,,,,,,,1.94,1.71,0.90*08
$GPRMC,143701.000,A,3630.4368,N,00616.6375,W,0.01,76.96,060216,,,D*4C
$GPVTG,76.96,T,,M,0.01,N,0.02,K,D*05
$GPGGA,143702.000,3630.4368,N,00616.6375,W,2,06,1.71,26.5,M,48.6,M,0000,0000*4D
$GPGSA,A,3,05,20,13,21,28,15,,,,,,,1.94,1.71,0.90*08
$GPGSV,3,1,09,13,65,350,36,05,61,180,43,20,53,294,41,28,48,085,36*7C
$GPGSV,3,2,09,33,46,195,36,15,35,304,35,30,29,048,21,21,08,309,30*7D
$GPGSV,3,3,09,07,02,053,17*45
$GPRMC,143702.000,A,3630.4368,N,00616.6375,W,0.01,35.93,060216,,,D*4D
$GPVTG,35.93,T,,M,0.01,N,0.01,K,D*04

Time: 14:37:2.0
Date: 6/2/2016
Fix: 1 quality: 2
Location: 3630.4368N, 616.6375W
Speed (knots): 0.01
Angle: 35.93
Altitude: 26.50
Satellites: 6
$GPGGA,143703.000,3630.4368,N,00616.6375,W,2,06,1.71,26.6,M,48.6,M,0000,0000*4F
$GPGSA,A,3,05,20,13,21,28,15,,,,,,,1.93,1.71,0.90*0F
$GPRMC,143703.000,A,3630.4368,N,00616.6375,W,0.00,139.83,060216,,,D*71
$GPVTG,139.83,T,,M,0.00,N,0.01,K,D*39
$GPGGA,143704.000,3630.4368,N,00616.6375,W,2,06,1.71,26.7,M,48.6,M,0000,0000*49
$GPGSA,A,3,05,20,13,21,28,15,,,,,,,1.94,1.71,0.90*08
$GPRMC,143704.000,A,3630.4368,N,00616.6375,W,0.01,237.25,060216,,,D*76
$GPVTG,237.25,T,,M,0.01,N,0.01,K,D*39

Time: 14:37:4.0
Date: 6/2/2016
Fix: 1 quality: 2
Location: 3630.4368N, 616.6375W
Speed (knots): 0.01
Angle: 237.25
Altitude: 26.70
Satellites: 6
$GPGGA,143705.000,3630.4368,N,00616.6375,W,2,06,1.71,26.8,M,48.6,M,0000,0000*47
$GPGSA,A,3,05,20,13,21,28,15,,,,,,,1.93,1.71,0.90*0F
$GPRMC,143705.000,A,3630.4368,N,00616.6375,W,0.00,66.40,060216,,,D*43
$GPVTG,66.40,T,,M,0.00,N,0.01,K,D*0D
$GPGGA,143706.000,3630.4368,N,00616.6375,W,2,06,1.71,26.8,M,48.6,M,0000,0000*44
$GPGSA,A,3,05,20,13,21,28,15,,,,,,,1.93,1.71,0.90*0F
$GPRMC,143706.000,A,3630.4368,N,00616.6375,W,0.01,87.59,060216,,,D*46
$GPVTG,87.59,T,,M,0.01,N,0.01,K,D*0B

Time: 14:37:6.0
Date: 6/2/2016
Fix: 1 quality: 2
Location: 3630.4368N, 616.6375W
Speed (knots): 0.01
Angle: 87.59
Altitude: 26.80
Satellites: 6
$GPGGA,143707.000,3630.4369,N,00616.6375,W,2,06,1.71,26.9,M,48.6,M,0000,0000*45
$GPGSA,A,3,05,20,13,21,28,15,,,,,,,1.93,1.71,0.90*0F
$GPGSV,3,1,09,13,65,350,36,05,61,180,43,20,53,293,40,28,48,085,37*7B
$GPGSV,3,2,09,33,46,195,37,15,35,304,34,30,29,048,23,21,08,309,29*77
$GPGSV,3,3,09,07,02,053,15*47
$GPRMC,143707.000,A,3630.4369,N,00616.6375,W,0.00,74.08,060216,,,D*4F
$GPVTG,74.08,T,,M,0.00,N,0.00,K,D*03
$GPGGA,143708.000,3630.4369,N,00616.6375,W,2,06,1.71,27.0,M,48.6,M,0000,0000*42
$GPGSA,A,3,05,20,13,21,28,15,,,,,,,1.93,1.71,0.90*0F
$GPRMC,143708.000,A,3630.4369,N,00616.6375,W,0.00,218.66,060216,,,D*70
$GPVTG,218.66,T,,M,0.00,N,0.00,K,D*33

Time: 14:37:8.0
Date: 6/2/2016
Fix: 1 quality: 2
Location: 3630.4370N, 616.6375W
Speed (knots): 0.00
Angle: 218.66
Altitude: 27.00
Satellites: 6
$GPGGA,143709.000,3630.4369,N,00616.6375,W,2,06,1.71,27.1,M,48.6,M,0000,0000*42
$GPGSA,A,3,05,20,13,21,28,15,,,,,,,1.93,1.71,0.90*0F
$GPRMC,143709.000,A,3630.4369,N,00616.6375,W,0.01,260.66,060216,,,D*7F
$GPVTG,260.66,T,,M,0.01,N,0.01,K,D*3C
$GPGGA,143710.000,3630.4369,N,00616.6375,W,2,06,1.71,27.1,M,48.6,M,0000,0000*4A
$GPGSA,A,3,05,20,13,21,28,15,,,,,,,1.93,1.71,0.90*0F
$GPRMC,143710.000,A,3630.4369,N,00616.6375,W,0.00,216.06,060216,,,D*71
$GPVTG,216.06,T,,M,0.00,N,0.00,K,D*3B

Time: 14:37:10.0
Date: 6/2/2016
Fix: 1 quality: 2
Location: 3630.4370N, 616.6375W
Speed (knots): 0.00
Angle: 216.06
Altitude: 27.10
Satellites: 6
$GPGGA,143711.000,3630.4369,N,00616.6375,W,2,06,1.71,27.1,M,48.6,M,0000,0000*4B
$GPGSA,A,3,05,20,13,21,28,15,,,,,,,1.93,1.71,0.90*0F
$GPRMC,143711.000,A,3630.4369,N,00616.6375,W,0.01,237.37,060216,,,D*70
$GPVTG,237.37,T,,M,0.01,N,0.01,K,D*3A
$GPGGA,143712.000,3630.4369,N,00616.6376,W,2,06,1.71,27.2,M,48.6,M,0000,0000*48
$GPGSA,A,3,05,20,13,21,28,15,,,,,,,1.93,1.71,0.90*0F
$GPGSV,3,1,09,13,65,350,37,05,61,180,43,20,53,293,40,28,48,084,37*7B
$GPGSV,3,2,09,33,46,195,38,15,35,304,35,30,29,048,23,21,08,309,29*79
$GPGSV,3,3,09,07,02,053,15*47
$GPRMC,143712.000,A,3630.4369,N,00616.6376,W,0.00,52.18,060216,,,D*4D
$GPVTG,52.18,T,,M,0.00,N,0.00,K,D*06

Time: 14:37:12.0
Date: 6/2/2016
Fix: 1 quality: 2
Location: 3630.4370N, 616.6376W
Speed (knots): 0.00
Angle: 52.18
Altitude: 27.20
Satellites: 6
$GPGGA,143713.000,3630.4369,N,00616.6376,W,2,06,1.71,27.3,M,48.6,M,0000,0000*48
$GPGSA,A,3,05,20,13,21,28,15,,,,,,,1.93,1.71,0.90*0F
$GPRMC,143713.000,A,3630.4369,N,00616.6376,W,0.00,183.43,060216,,,D*7F
$GPVTG,183.43,T,,M,0.00,N,0.00,K,D*35
$GPGGA,143714.000,3630.4369,N,00616.6376,W,2,06,1.71,27.3,M,48.6,M,0000,0000*4F
$GPGSA,A,3,05,20,13,21,28,15,,,,,,,1.93,1.71,0.90*0F
$GPRMC,143714.000,A,3630.4369,N,00616.6376,W,0.00,327.72,060216,,,D*76
$GPVTG,327.72,T,,M,0.00,N,0.01,K,D*3A

Time: 14:37:14.0
Date: 6/2/2016
Fix: 1 quality: 2
Location: 3630.4370N, 616.6376W
Speed (knots): 0.00
Angle: 327.72
Altitude: 27.30
Satellites: 6
$GPGGA,143715.000,3630.4369,N,00616.6376,W,2,06,1.71,27.3,M,48.6,M,0000,0000*4E
$GPGSA,A,3,05,20,13,21,28,15,,,,,,,1.93,1.71,0.90*0F
$GPRMC,143715.000,A,3630.4369,N,00616.6376,W,0.03,288.98,060216,,,D*74
$GPVTG,288.98,T,,M,0.03,N,0.05,K,D*3D
$GPGGA,143716.000,3630.4369,N,00616.6376,W,2,06,1.71,27.3,M,48.6,M,0000,0000*4D
$GPGSA,A,3,05,20,13,21,28,15,,,,,,,1.93,1.71,0.90*0F
$GPRMC,143716.000,A,3630.4369,N,00616.6376,W,0.00,0.00,060216,,,D*77
$GPVTG,0.00,T,,M,0.00,N,0.00,K,D*38

Time: 14:37:16.0
Date: 6/2/2016
Fix: 1 quality: 2
Location: 3630.4370N, 616.6376W
Speed (knots): 0.00
Angle: 0.00
Altitude: 27.30
Satellites: 6
$GPGGA,143717.000,3630.4369,N,00616.6376,W,2,06,1.71,27.3,M,48.6,M,0000,0000*4C
$GPGSA,A,3,05,20,13,21,28,15,,,,,,,1.93,1.71,0.90*0F
$GPGSV,3,1,09,13,65,350,37,05,61,180,43,20,53,293,40,28,48,084,38*74
$GPGSV,3,2,09,33,46,195,38,15,35,304,36,30,29,048,22,21,08,309,29*7B
$GPGSV,3,3,09,07,02,053,18*4A
$GPRMC,143717.000,A,3630.4369,N,00616.6376,W,0.00,346.58,060216,,,D*7A
$GPVTG,346.58,T,,M,0.00,N,0.00,K,D*34
$GPGGA,143718.000,3630.4369,N,00616.6376,W,2,06,1.71,27.3,M,48.6,M,0000,0000*43
$GPGSA,A,3,05,20,13,21,28,15,,,,,,,1.93,1.71,0.90*0F
$GPRMC,143718.000,A,3630.4369,N,00616.6376,W,0.01,114.94,060216,,,D*71
$GPVTG,114.94,T,,M,0.01,N,0.02,K,D*32

Time: 14:37:18.0
Date: 6/2/2016
Fix: 1 quality: 2
Location: 3630.4370N, 616.6376W
Speed (knots): 0.01
Angle: 114.94
Altitude: 27.30
Satellites: 6
$GPGGA,143719.000,3630.4369,N,00616.6376,W,2,06,1.71,27.3,M,48.6,M,0000,0000*42
$GPGSA,A,3,05,20,13,21,28,15,,,,,,,1.93,1.71,0.90*0F
$GPRMC,143719.000,A,3630.4369,N,00616.6376,W,0.01,118.42,060216,,,D*77
$GPVTG,118.42,T,,M,0.01,N,0.02,K,D*35
$GPGGA,143720.000,3630.4369,N,00616.6375,W,2,06,1.71,27.3,M,48.6,M,0000,0000*4B
$GPGSA,A,3,05,20,13,21,28,15,,,,,,,1.93,1.71,0.90*0F
$GPRMC,143720.000,A,3630.4369,N,00616.6375,W,0.01,100.22,060216,,,D*71
$GPVTG,100.22,T,,M,0.01,N,0.02,K,D*3A

Time: 14:37:20.0
Date: 6/2/2016
Fix: 1 quality: 2
Location: 3630.4370N, 616.6375W
Speed (knots): 0.01
Angle: 100.22
Altitude: 27.30
Satellites: 6
$GPGGA,143721.000,3630.4369,N,00616.6375,W,2,06,1.71,27.3,M,48.6,M,0000,0000*4A
$GPGSA,A,3,05,20,13,21,28,15,,,,,,,1.93,1.71,0.90*0F
$GPRMC,143721.000,A,3630.4369,N,00616.6375,W,0.01,105.14,060216,,,D*70
$GPVTG,105.14,T,,M,0.01,N,0.02,K,D*3A
$GPGGA,143722.000,3630.4369,N,00616.6376,W,2,06,1.71,27.3,M,48.6,M,0000,0000*4A
$GPGSA,A,3,05,20,13,21,28,15,,,,,,,1.93,1.71,0.90*0F
$GPGSV,3,1,09,13,65,350,37,05,61,180,43,20,53,293,40,28,48,084,39*75
$GPGSV,3,2,09,33,46,195,38,15,35,304,35,30,29,048,20,21,08,309,30*72
$GPGSV,3,3,09,07,02,053,18*4A
$GPRMC,143722.000,A,3630.4369,N,00616.6376,W,0.00,126.92,060216,,,D*7E
$GPVTG,126.92,T,,M,0.00,N,0.01,K,D*37

Time: 14:37:22.0
Date: 6/2/2016
Fix: 1 quality: 2
Location: 3630.4370N, 616.6376W
Speed (knots): 0.00
Angle: 126.92
Altitude: 27.30
Satellites: 6
$GPGGA,143723.000,3630.4369,N,00616.6376,W,2,06,1.71,27.3,M,48.6,M,0000,0000*4B
$GPGSA,A,3,05,20,13,21,28,15,,,,,,,1.93,1.71,0.90*0F
$GPRMC,143723.000,A,3630.4369,N,00616.6376,W,0.00,302.54,060216,,,D*71
$GPVTG,302.54,T,,M,0.00,N,0.01,K,D*39
$GPGGA,143724.000,3630.4369,N,00616.6376,W,2,06,1.71,27.2,M,48.6,M,0000,0000*4D
$GPGSA,A,3,05,20,13,21,28,15,,,,,,,1.93,1.71,0.90*0F
$GPRMC,143724.000,A,3630.4369,N,00616.6376,W,0.01,89.95,060216,,,D*4A
$GPVTG,89.95,T,,M,0.01,N,0.01,K,D*05

Time: 14:37:24.0
Date: 6/2/2016
Fix: 1 quality: 2
Location: 3630.4370N, 616.6376W
Speed (knots): 0.01
Angle: 89.95
Altitude: 27.20
Satellites: 6
$GPGGA,143725.000,3630.4369,N,00616.6376,W,2,06,1.71,27.2,M,48.6,M,0000,0000*4C
$GPGSA,A,3,05,20,13,21,28,15,,,,,,,1.93,1.71,0.90*0F
$GPRMC,143725.000,A,3630.4369,N,00616.6376,W,0.00,0.00,060216,,,D*77
$GPVTG,0.00,T,,M,0.00,N,0.00,K,D*38
$GPGGA,143726.000,3630.4369,N,00616.6376,W,2,06,1.71,27.3,M,48.6,M,0000,0000*4E
$GPGSA,A,3,05,20,13,21,28,15,,,,,,,1.93,1.71,0.90*0F
$GPRMC,143726.000,A,3630.4369,N,00616.6376,W,0.00,70.56,060216,,,D*40
$GPVTG,70.56,T,,M,0.00,N,0.01,K,D*0D

Time: 14:37:26.0
Date: 6/2/2016
Fix: 1 quality: 2
Location: 3630.4370N, 616.6376W
Speed (knots): 0.00
Angle: 70.56
Altitude: 27.30
Satellites: 6
$GPGGA,143727.000,3630.4369,N,00616.6376,W,2,06,1.71,27.3,M,48.6,M,0000,0000*4F
$GPGSA,A,3,05,20,13,21,28,15,,,,,,,1.93,1.71,0.90*0F
$GPGSV,3,1,09,13,65,350,38,05,61,180,42,20,53,293,40,28,48,084,38*7A
$GPGSV,3,2,09,33,46,195,35,15,35,304,33,30,29,048,18,21,08,309,32*70
$GPGSV,3,3,09,07,01,053,21*43
$GPRMC,143727.000,A,3630.4369,N,00616.6376,W,0.01,45.56,060216,,,D*46
$GPVTG,45.56,T,,M,0.01,N,0.01,K,D*0A
$GPGGA,143728.000,3630.4369,N,00616.6376,W,2,06,1.70,27.4,M,48.6,M,0000,0000*46
$GPGSA,A,3,05,20,13,21,28,15,,,,,,,1.93,1.70,0.90*0E
$GPRMC,143728.000,A,3630.4369,N,00616.6376,W,0.01,118.08,060216,,,D*7B
$GPVTG,118.08,T,,M,0.01,N,0.02,K,D*3B

Time: 14:37:28.0
Date: 6/2/2016
Fix: 1 quality: 2
Location: 3630.4370N, 616.6376W
Speed (knots): 0.01
Angle: 118.08
Altitude: 27.40
Satellites: 6
$GPGGA,143729.000,3630.4369,N,00616.6376,W,2,06,1.70,27.4,M,48.6,M,0000,0000*47
$GPGSA,A,3,05,20,13,21,28,15,,,,,,,1.93,1.70,0.90*0E
$GPRMC,143729.000,A,3630.4369,N,00616.6376,W,0.00,31.05,060216,,,D*4C
$GPVTG,31.05,T,,M,0.00,N,0.00,K,D*0F
$GPGGA,143730.000,3630.4369,N,00616.6376,W,2,06,1.71,27.6,M,48.6,M,0000,0000*4C
$GPGSA,A,3,05,20,13,21,28,15,,,,,,,1.93,1.71,0.90*0F
$GPRMC,143730.000,A,3630.4369,N,00616.6376,W,0.02,130.70,060216,,,D*74
$GPVTG,130.70,T,,M,0.02,N,0.05,K,D*3A

Time: 14:37:30.0
Date: 6/2/2016
Fix: 1 quality: 2
Location: 3630.4370N, 616.6376W
Speed (knots): 0.02
Angle: 130.70
Altitude: 27.60
Satellites: 6
$GPGGA,143731.000,3630.4369,N,00616.6376,W,2,06,1.70,27.6,M,48.6,M,0000,0000*4C
$GPGSA,A,3,05,20,13,21,28,15,,,,,,,1.93,1.70,0.90*0E
$GPRMC,143731.000,A,3630.4369,N,00616.6376,W,0.00,147.03,060216,,,D*73
$GPVTG,147.03,T,,M,0.00,N,0.01,K,D*38
$GPGGA,143732.000,3630.4369,N,00616.6376,W,2,06,1.70,27.6,M,48.6,M,0000,0000*4F
$GPGSA,A,3,05,20,13,21,28,15,,,,,,,1.93,1.70,0.90*0E
$GPGSV,3,1,09,13,65,350,38,05,61,180,43,20,53,293,40,28,48,084,36*75
$GPGSV,3,2,09,33,46,195,35,15,35,304,35,30,29,048,21,21,08,309,31*7F
$GPGSV,3,3,09,07,01,053,23*41
$GPRMC,143732.000,A,3630.4369,N,00616.6376,W,0.01,119.47,060216,,,D*7A
$GPVTG,119.47,T,,M,0.01,N,0.02,K,D*31

Time: 14:37:32.0
Date: 6/2/2016
Fix: 1 quality: 2
Location: 3630.4370N, 616.6376W
Speed (knots): 0.01
Angle: 119.47
Altitude: 27.60
Satellites: 6
$GPGGA,143733.000,3630.4369,N,00616.6376,W,2,06,1.70,27.6,M,48.6,M,0000,0000*4E
$GPGSA,A,3,05,20,13,21,28,15,,,,,,,1.93,1.70,0.90*0E
$GPRMC,143733.000,A,3630.4369,N,00616.6376,W,0.01,111.78,060216,,,D*7F
$GPVTG,111.78,T,,M,0.01,N,0.01,K,D*36
$GPGGA,143734.000,3630.4369,N,00616.6376,W,2,06,1.70,27.6,M,48.6,M,0000,0000*49
$GPGSA,A,3,05,20,13,21,28,15,,,,,,,1.93,1.70,0.90*0E
$GPRMC,143734.000,A,3630.4369,N,00616.6376,W,0.01,178.94,060216,,,D*75
$GPVTG,178.94,T,,M,0.01,N,0.02,K,D*38

Time: 14:37:34.0
Date: 6/2/2016
Fix: 1 quality: 2
Location: 3630.4370N, 616.6376W
Speed (knots): 0.01
Angle: 178.94
Altitude: 27.60
Satellites: 6
$GPGGA,143735.000,3630.4369,N,00616.6376,W,2,06,1.70,27.6,M,48.6,M,0000,0000*48
$GPGSA,A,3,05,20,13,21,28,15,,,,,,,1.93,1.70,0.90*0E
$GPRMC,143735.000,A,3630.4369,N,00616.6376,W,0.00,261.77,060216,,,D*73
$GPVTG,261.77,T,,M,0.00,N,0.01,K,D*3C
$GPGGA,143736.000,3630.4369,N,00616.6376,W,2,06,1.70,27.6,M,48.6,M,0000,0000*4B
$GPGSA,A,3,05,20,13,21,28,15,,,,,,,1.93,1.70,0.90*0E
$GPRMC,143736.000,A,3630.4369,N,00616.6376,W,0.02,291.78,060216,,,D*72
$GPVTG,291.78,T,,M,0.02,N,0.04,K,D*3B

Time: 14:37:36.0
Date: 6/2/2016
Fix: 1 quality: 2
Location: 3630.4370N, 616.6376W
Speed (knots): 0.02
Angle: 291.78
Altitude: 27.60
Satellites: 6
$GPGGA,143737.000,3630.4369,N,00616.6376,W,2,06,1.70,27.6,M,48.6,M,0000,0000*4A
$GPGSA,A,3,05,20,13,21,28,15,,,,,,,1.93,1.70,0.90*0E
$GPGSV,3,1,09,13,65,351,38,05,61,180,43,20,53,293,40,28,48,084,37*75
$GPGSV,3,2,09,33,46,195,34,15,36,304,35,30,29,048,17,21,08,309,32*7B
$GPGSV,3,3,09,07,01,053,25*47
$GPRMC,143737.000,A,3630.4369,N,00616.6376,W,0.00,237.55,060216,,,D*72
$GPVTG,237.55,T,,M,0.00,N,0.01,K,D*3F
$GPGGA,143738.000,3630.4369,N,00616.6376,W,2,06,1.70,27.6,M,48.6,M,0000,0000*45
$GPGSA,A,3,05,20,13,21,28,15,,,,,,,1.92,1.70,0.90*0F
$GPRMC,143738.000,A,3630.4369,N,00616.6376,W,0.00,55.76,060216,,,D*4A
$GPVTG,55.76,T,,M,0.00,N,0.01,K,D*08

Time: 14:37:38.0
Date: 6/2/2016
Fix: 1 quality: 2
Location: 3630.4370N, 616.6376W
Speed (knots): 0.00
Angle: 55.76
Altitude: 27.60
Satellites: 6
